Time,header.seq,header.stamp.secs,header.stamp.nsecs,header.frame_id,pose.position.x,pose.position.y,pose.position.z,pose.orientation.x,pose.orientation.y,pose.orientation.z,pose.orientation.w
1455208573.54732,0,1455208573,547319935,,0.558693,0.915444,-3.5918160000000006,0.082278,0.030976999999999998,0.12632000000000002,-0.988086
1455208573.55982,0,1455208573,559819936,,0.560181,0.918726,-3.592889,0.058954,0.023566,0.08888,-0.994017
1455208573.57232,0,1455208573,572319936,,0.557046,0.9227420000000001,-3.591415,0.08269800000000001,0.036074,0.13153399999999998,-0.9871969999999999
1455208573.58482,0,1455208573,584819936,,0.556887,0.926615,-3.5906239999999996,0.092908,0.039725,0.12319400000000001,-0.987225
1455208573.5973198,0,1455208573,597319935,,0.556579,0.9288790000000001,-3.590392,0.086387,0.035081,0.126797,-0.9875370000000001
1455208573.60982,0,1455208573,609819935,,0.556241,0.9316190000000001,-3.590182,0.082307,0.030129000000000003,0.12751400000000002,-0.987956
1455208573.62232,0,1455208573,622319936,,0.5559069999999999,0.9342719999999999,-3.5898480000000004,0.084709,0.030647000000000004,0.123857,-0.988203
1455208573.63482,0,1455208573,634819936,,0.555072,0.9373379999999999,-3.589539,0.086899,0.036374000000000004,0.121924,-0.988059
1455208573.64732,0,1455208573,647319936,,0.554679,0.939384,-3.5892209999999998,0.08004299999999999,0.032147,0.128117,-0.988001
1455208573.6598198,0,1455208573,659819935,,0.554283,0.9416540000000001,-3.5890459999999997,0.078253,0.028095,0.130767,-0.9879209999999999
1455208573.67232,0,1455208573,672319935,,0.552875,0.944241,-3.588773,0.081015,0.037245,0.137051,-0.9865430000000001
1455208573.68482,0,1455208573,684819936,,0.552668,0.9460069999999999,-3.5884339999999995,0.079661,0.035717,0.134323,-0.987084
1455208573.69732,0,1455208573,697319936,,0.552296,0.9474950000000001,-3.5880949999999996,0.07320800000000001,0.033497000000000006,0.133838,-0.987728
1455208573.70982,0,1455208573,709819936,,0.552053,0.950521,-3.587175,0.09255,0.040447000000000004,0.121885,-0.987392
1455208573.7223198,0,1455208573,722319935,,0.551489,0.9526040000000001,-3.586957,0.08744500000000001,0.038875,0.125211,-0.987504
1455208573.73482,0,1455208573,734819935,,0.5509569999999999,0.9540120000000001,-3.586876,0.080319,0.035572,0.126611,-0.9880549999999999
1455208573.74732,0,1455208573,747319936,,0.550388,0.955677,-3.586469,0.08139199999999999,0.034700999999999996,0.12573,-0.9881110000000001
1455208573.75982,0,1455208573,759819936,,0.550046,0.956842,-3.586151,0.08055599999999999,0.031622000000000004,0.130404,-0.987677
1455208573.77232,0,1455208573,772319936,,0.549365,0.958838,-3.585639,0.089808,0.035369,0.126702,-0.9872340000000001
1455208573.7848198,0,1455208573,784819935,,0.5488029999999999,0.960046,-3.585198,0.08935900000000001,0.03495,0.12414000000000001,-0.9876149999999999
1455208573.79732,0,1455208573,797319935,,0.5484100000000001,0.9613209999999999,-3.5849349999999998,0.08251,0.031487,0.128851,-0.9877239999999999
1455208573.80982,0,1455208573,809819936,,0.5479539999999999,0.9620489999999999,-3.58455,0.080009,0.028373000000000002,0.128966,-0.988009
1455208573.82232,0,1455208573,822319936,,0.547611,0.9627389999999999,-3.5842110000000003,0.078237,0.027325,0.128914,-0.988187
1455208573.83482,0,1455208573,834819936,,0.546691,0.964886,-3.5836230000000002,0.08617899999999999,0.035935,0.122802,-0.988029
1455208573.8473198,0,1455208573,847319935,,0.546093,0.9655469999999999,-3.583248,0.08417000000000001,0.036247,0.125632,-0.987835
1455208573.85982,0,1455208573,859819935,,0.545726,0.9663930000000001,-3.582904,0.081204,0.037047000000000004,0.12046,-0.988698
1455208573.87232,0,1455208573,872319936,,0.545301,0.967247,-3.582447,0.079652,0.038734,0.114301,-0.98949
1455208573.88482,0,1455208573,884819936,,0.544622,0.9679479999999999,-3.5819660000000004,0.08306000000000001,0.034441,0.122393,-0.9884
1455208573.89732,0,1455208573,897319936,,0.545038,0.967875,-3.5822199999999995,0.07094,0.036358,0.10884200000000001,-0.990858
1455208573.9098198,0,1455208573,909819935,,0.544556,0.968094,-3.581814,0.071573,0.032737999999999996,0.10819400000000001,-0.991009
1455208573.92232,0,1455208573,922319935,,0.544107,0.9683450000000001,-3.5814980000000003,0.07049,0.032222,0.109372,-0.990975
1455208573.93482,0,1455208573,934819936,,0.542321,0.969716,-3.580036,0.09364,0.040977,0.124857,-0.9868959999999999
1455208573.94732,0,1455208573,947319936,,0.541352,0.9693120000000001,-3.579991,0.08075,0.036486000000000005,0.135055,-0.9868680000000001
1455208573.95982,0,1455208573,959819936,,0.540748,0.9694,-3.579447,0.083024,0.036021,0.137877,-0.9863059999999999
1455208573.9723198,0,1455208573,972319935,,0.540077,0.969625,-3.578875,0.082617,0.036326,0.14013,-0.9860120000000001
1455208573.98482,0,1455208573,984819935,,0.540623,0.9691049999999999,-3.5791410000000003,0.068939,0.037795,0.11444000000000001,-0.9903139999999999
1455208573.99732,0,1455208573,997319936,,0.539258,0.969659,-3.5779910000000004,0.080515,0.033022,0.135727,-0.986917
1455208574.00982,0,1455208574,9819936,,0.5388350000000001,0.9699840000000001,-3.577578,0.078072,0.031758999999999996,0.136925,-0.9869889999999999
1455208574.02232,0,1455208574,22319936,,0.5390729999999999,0.96947,-3.5776830000000004,0.064942,0.03449,0.11657999999999999,-0.990456
1455208574.0348198,0,1455208574,34819935,,0.538254,0.9703510000000001,-3.5767160000000002,0.075894,0.040801,0.121406,-0.988856
1455208574.04732,0,1455208574,47319935,,0.536871,0.971625,-3.575671,0.087047,0.035185,0.139336,-0.985784
1455208574.05982,0,1455208574,59819936,,0.536082,0.971834,-3.5754919999999997,0.081973,0.036286,0.14060799999999998,-0.985999
1455208574.07232,0,1455208574,72319936,,0.536025,0.972894,-3.574676,0.09133200000000001,0.040404,0.127345,-0.9868180000000001
1455208574.08482,0,1455208574,84819936,,0.535678,0.9732709999999999,-3.574358,0.086301,0.03938,0.123635,-0.987783
1455208574.0973198,0,1455208574,97319935,,0.535137,0.973561,-3.573717,0.08507999999999999,0.033995,0.123147,-0.98815
1455208574.10982,0,1455208574,109819935,,0.5339229999999999,0.9738620000000001,-3.573379,0.080144,0.036616,0.132437,-0.987267
1455208574.12232,0,1455208574,122319936,,0.533717,0.974518,-3.573226,0.07953099999999999,0.037663999999999996,0.12786199999999998,-0.98788
1455208574.13482,0,1455208574,134819936,,0.533323,0.976043,-3.572246,0.092953,0.041723,0.12300699999999999,-0.9871620000000001
1455208574.14732,0,1455208574,147319936,,0.532158,0.977504,-3.5720370000000004,0.096234,0.038017,0.145482,-0.983935
1455208574.1598198,0,1455208574,159819935,,0.531258,0.9782709999999999,-3.571917,0.090154,0.039098,0.155074,-0.9830030000000001
1455208574.17232,0,1455208574,172319935,,0.5305449999999999,0.9790760000000001,-3.571479,0.090698,0.040527999999999995,0.15623800000000002,-0.9827110000000001
1455208574.18482,0,1455208574,184819936,,0.529883,0.979635,-3.5709720000000003,0.090285,0.038737,0.159613,-0.9822790000000001
1455208574.19732,0,1455208574,197319936,,0.529546,0.980226,-3.570789,0.086892,0.036858,0.155774,-0.983273
1455208574.20982,0,1455208574,209819936,,0.529195,0.9807819999999999,-3.5703699999999996,0.078414,0.036778,0.149701,-0.984931
1455208574.2223198,0,1455208574,222319935,,0.52932,0.982132,-3.568806,0.089312,0.0375,0.126477,-0.9872290000000001
1455208574.23482,0,1455208574,234819935,,0.528737,0.983028,-3.568289,0.089741,0.036874000000000004,0.124136,-0.987511
1455208574.24732,0,1455208574,247319936,,0.528249,0.9838129999999999,-3.5678669999999997,0.086421,0.034053,0.125412,-0.9877469999999999
1455208574.25982,0,1455208574,259819936,,0.527738,0.9847520000000001,-3.567328,0.08213200000000001,0.030572000000000002,0.127993,-0.9878950000000001
1455208574.27232,0,1455208574,272319936,,0.527337,0.985549,-3.566956,0.07791000000000001,0.027611,0.128361,-0.9882770000000001
1455208574.2848198,0,1455208574,284819935,,0.5267350000000001,0.9866010000000001,-3.566469,0.07646900000000001,0.026547,0.130191,-0.9881790000000001
1455208574.29732,0,1455208574,297319935,,0.5258689999999999,0.988735,-3.5655050000000004,0.08719600000000001,0.037424,0.124472,-0.987676
1455208574.30982,0,1455208574,309819936,,0.525316,0.9900909999999999,-3.564915,0.088172,0.037883,0.121099,-0.987991
1455208574.32232,0,1455208574,322319936,,0.524844,0.99154,-3.564321,0.089726,0.037689,0.11903399999999999,-0.988109
1455208574.33482,0,1455208574,334819936,,0.5250100000000001,0.9920690000000001,-3.564336,0.072939,0.038360000000000005,0.10711,-0.990826
1455208574.3473198,0,1455208574,347319935,,0.523872,0.9937299999999999,-3.5633449999999995,0.078445,0.030177,0.123178,-0.988819
1455208574.35982,0,1455208574,359819935,,0.5230239999999999,0.9950700000000001,-3.562526,0.07810399999999999,0.039564,0.118677,-0.989065
1455208574.37232,0,1455208574,372319936,,0.5223720000000001,0.9969819999999999,-3.561768,0.083304,0.037499,0.12356900000000001,-0.988122
1455208574.38482,0,1455208574,384819936,,0.52183,0.998259,-3.561264,0.077473,0.032929,0.126296,-0.9884139999999999
1455208574.39732,0,1455208574,397319936,,0.5213369999999999,0.999625,-3.5606970000000002,0.072533,0.028380000000000002,0.129371,-0.988533
1455208574.4098198,0,1455208574,409819935,,0.520849,1.000928,-3.560117,0.069084,0.02652,0.12930999999999998,-0.9888389999999999
1455208574.42232,0,1455208574,422319935,,0.5203399999999999,1.002257,-3.5595120000000002,0.06476,0.025216,0.12730999999999998,-0.989425
1455208574.43482,0,1455208574,434819936,,0.518995,1.004921,-3.558147,0.07658,0.03689,0.12574000000000002,-0.9884149999999999
1455208574.44732,0,1455208574,447319936,,0.5185649999999999,1.0062520000000001,-3.557408,0.071762,0.036877,0.122232,-0.989217
1455208574.45982,0,1455208574,459819936,,0.518093,1.007514,-3.556744,0.066664,0.032901,0.125496,-0.9893049999999999
1455208574.4723198,0,1455208574,472319935,,0.517628,1.009049,-3.556023,0.06342,0.027696,0.13083699999999998,-0.988986
1455208574.48482,0,1455208574,484819935,,0.516517,1.0110629999999998,-3.5552129999999997,0.06295,0.038574000000000004,0.12285,-0.989675
1455208574.49732,0,1455208574,497319936,,0.515725,1.013224,-3.554186,0.067347,0.036223000000000005,0.129939,-0.988569
1455208574.50982,0,1455208574,509819936,,0.515261,1.014928,-3.5533959999999998,0.061946,0.038592,0.12044500000000001,-0.990034
1455208574.52232,0,1455208574,522319936,,0.514572,1.016725,-3.552475,0.064955,0.031439999999999996,0.131864,-0.9886379999999999
1455208574.5348198,0,1455208574,534819935,,0.514026,1.018345,-3.551537,0.056455,0.029082999999999998,0.129237,-0.9895780000000001
1455208574.54732,0,1455208574,547319935,,0.513466,1.0217129999999999,-3.5499949999999996,0.073632,0.037157,0.11915,-0.989445
1455208574.55982,0,1455208574,559819936,,0.512808,1.023081,-3.549031,0.065006,0.033121,0.11990999999999999,-0.9901
1455208574.57232,0,1455208574,572319936,,0.511175,1.0249629999999998,-3.5477629999999998,0.066149,0.038702999999999994,0.131166,-0.9883940000000001
1455208574.58482,0,1455208574,584819936,,0.510668,1.026535,-3.546729,0.060997,0.039810000000000005,0.123405,-0.9896799999999999
1455208574.5973198,0,1455208574,597319935,,0.510057,1.027995,-3.5456730000000003,0.052820000000000006,0.042124,0.11489300000000001,-0.991078
1455208574.60982,0,1455208574,609819935,,0.5099020000000001,1.030301,-3.544468,0.053954999999999996,0.046195,0.098731,-0.992576
1455208574.62232,0,1455208574,622319936,,0.508884,1.033415,-3.5423129999999996,0.072812,0.035595,0.122023,-0.9892129999999999
1455208574.63482,0,1455208574,634819936,,0.508167,1.0355590000000001,-3.5408800000000005,0.072298,0.036863,0.11718699999999999,-0.9897889999999999
1455208574.64732,0,1455208574,647319936,,0.507332,1.037615,-3.5393790000000003,0.070572,0.036459,0.11876500000000001,-0.98974
1455208574.6598198,0,1455208574,659819935,,0.50603,1.039148,-3.537958,0.061684,0.037124000000000004,0.125254,-0.989509
1455208574.67232,0,1455208574,672319935,,0.5053810000000001,1.040965,-3.536686,0.055683,0.040547,0.117224,-0.990714
1455208574.68482,0,1455208574,684819936,,0.504309,1.043842,-3.5347089999999994,0.061730999999999994,0.037078,0.13138699999999998,-0.988712
1455208574.69732,0,1455208574,697319936,,0.503545,1.046317,-3.5329410000000006,0.061907000000000004,0.037246,0.126602,-0.9893190000000001
1455208574.70982,0,1455208574,709819936,,0.502344,1.048973,-3.531136,0.06547,0.036407999999999996,0.133496,-0.9882139999999999
1455208574.7223198,0,1455208574,722319935,,0.501967,1.051977,-3.529117,0.070393,0.035532999999999995,0.12754300000000002,-0.9886940000000001
1455208574.73482,0,1455208574,734819935,,0.502246,1.053049,-3.5280370000000003,0.044278,0.033774,0.10591700000000001,-0.992814
1455208574.74732,0,1455208574,747319936,,0.500127,1.056306,-3.525347,0.059641999999999994,0.037348,0.12293699999999999,-0.989916
1455208574.75982,0,1455208574,759819936,,0.49913900000000005,1.05887,-3.5232410000000005,0.059364,0.035564,0.126857,-0.989504
1455208574.77232,0,1455208574,772319936,,0.498458,1.0610110000000001,-3.5215949999999996,0.050506,0.040555,0.114905,-0.9912629999999999
1455208574.7848198,0,1455208574,784819935,,0.498108,1.063752,-3.5196870000000002,0.048415,0.046055,0.097947,-0.9929459999999999
1455208574.79732,0,1455208574,797319935,,0.496805,1.067226,-3.516736,0.063974,0.03563,0.12189100000000001,-0.9898389999999999
1455208574.80982,0,1455208574,809819936,,0.49596899999999994,1.069149,-3.5148449999999998,0.052478,0.027516000000000002,0.125934,-0.990268
1455208574.82232,0,1455208574,822319936,,0.494537,1.072022,-3.5122160000000004,0.060646000000000005,0.036338999999999996,0.127854,-0.9892700000000001
1455208574.83482,0,1455208574,834819936,,0.492807,1.075647,-3.510362,0.064593,0.038768000000000004,0.153949,-0.985203
1455208574.8473198,0,1455208574,847319935,,0.49301999999999996,1.077683,-3.507252,0.066327,0.036902,0.11816099999999999,-0.990089
1455208574.85982,0,1455208574,859819935,,0.492071,1.080006,-3.504688,0.066108,0.036425,0.119984,-0.9899020000000001
1455208574.87232,0,1455208574,872319936,,0.49094899999999997,1.081634,-3.502704,0.050395999999999996,0.042519,0.111384,-0.9915879999999999
1455208574.88482,0,1455208574,884819936,,0.489493,1.08454,-3.4995809999999996,0.06025,0.039053,0.125341,-0.9895120000000001
1455208574.89732,0,1455208574,897319936,,0.489069,1.086918,-3.497214,0.054238999999999996,0.043542000000000004,0.110177,-0.991475
1455208574.9098198,0,1455208574,909819935,,0.48710299999999995,1.089472,-3.494057,0.061612,0.039521,0.134257,-0.988239
1455208574.92232,0,1455208574,922319935,,0.48653599999999997,1.091269,-3.491668,0.052655999999999994,0.031029,0.131993,-0.9893649999999999
1455208574.93482,0,1455208574,934819936,,0.486008,1.094236,-3.488726,0.057432000000000004,0.044374000000000004,0.10903800000000001,-0.9913850000000001
1455208574.94732,0,1455208574,947319936,,0.484742,1.0969280000000001,-3.4850269999999997,0.074156,0.040221,0.12160499999999999,-0.9889870000000001
1455208574.95982,0,1455208574,959819936,,0.48387700000000006,1.098746,-3.482501,0.058559,0.032986,0.12028,-0.9904620000000001
1455208574.9723198,0,1455208574,972319935,,0.48211099999999996,1.100863,-3.479226,0.059892999999999995,0.038624,0.126133,-0.98945
1455208574.98482,0,1455208574,984819935,,0.481207,1.102774,-3.4766160000000004,0.051722000000000004,0.030688999999999998,0.13032,-0.9896459999999999
1455208574.99732,0,1455208574,997319936,,0.48001499999999997,1.106407,-3.472639,0.07362300000000001,0.034156,0.131929,-0.987931
1455208575.00982,0,1455208575,9819936,,0.47893100000000005,1.107478,-3.469643,0.061091999999999994,0.037964,0.12811199999999998,-0.9891479999999999
1455208575.02232,0,1455208575,22319936,,0.47791999999999996,1.109143,-3.4670160000000005,0.04929,0.043834,0.117601,-0.9908680000000001
1455208575.0348198,0,1455208575,34819935,,0.476887,1.111235,-3.463394,0.05182899999999999,0.030527,0.128658,-0.9898629999999999
1455208575.04732,0,1455208575,47319935,,0.475757,1.1131870000000001,-3.4602370000000002,0.049294,0.044566,0.116126,-0.991009
1455208575.05982,0,1455208575,59819936,,0.474699,1.116341,-3.455724,0.070345,0.041634,0.119931,-0.989411
1455208575.07232,0,1455208575,72319936,,0.473433,1.117155,-3.453332,0.047866000000000006,0.04371,0.119968,-0.9906590000000001
1455208575.08482,0,1455208575,84819936,,0.472682,1.120109,-3.4489089999999996,0.067142,0.03717,0.119157,-0.9899049999999999
1455208575.0973198,0,1455208575,97319935,,0.47120200000000007,1.1209209999999998,-3.4460940000000004,0.048795,0.044452,0.11867799999999999,-0.9907360000000001
1455208575.10982,0,1455208575,109819935,,0.46990600000000005,1.12311,-3.441704,0.057888999999999996,0.037855,0.127566,-0.9894149999999999
1455208575.12232,0,1455208575,122319936,,0.468942,1.1246399999999999,-3.438676,0.046951,0.044974,0.118084,-0.990873
1455208575.13482,0,1455208575,134819936,,0.467876,1.126462,-3.434623,0.052756,0.032352,0.128148,-0.989822
1455208575.14732,0,1455208575,147319936,,0.466525,1.128738,-3.4302629999999996,0.061266999999999995,0.03872,0.129097,-0.98898
1455208575.1598198,0,1455208575,159819935,,0.465462,1.1302020000000002,-3.427136,0.050466000000000004,0.044015,0.12079300000000001,-0.990417
1455208575.17232,0,1455208575,172319935,,0.46465,1.1326180000000001,-3.4224040000000002,0.069325,0.037691,0.12458699999999999,-0.989066
1455208575.18482,0,1455208575,184819936,,0.463237,1.133493,-3.419142,0.051587,0.04553,0.122572,-0.990072
1455208575.19732,0,1455208575,197319936,,0.46224499999999996,1.1353739999999999,-3.4149309999999997,0.053007000000000006,0.030626999999999998,0.130417,-0.989567
1455208575.20982,0,1455208575,209819936,,0.460892,1.137167,-3.4102370000000004,0.060941999999999996,0.039319,0.127647,-0.989165
1455208575.2223198,0,1455208575,222319935,,0.45979899999999996,1.1382940000000001,-3.406772,0.050686,0.045042,0.12148199999999999,-0.990275
1455208575.23482,0,1455208575,234819935,,0.45859799999999995,1.1414389999999999,-3.401502,0.07534500000000001,0.034769,0.13464600000000002,-0.9874129999999999
1455208575.24732,0,1455208575,247319936,,0.457449,1.141834,-3.397529,0.063048,0.040049,0.128826,-0.98885
1455208575.25982,0,1455208575,259819936,,0.456941,1.1436899999999999,-3.39391,0.062153999999999994,0.046579,0.11424200000000001,-0.9904120000000001
1455208575.27232,0,1455208575,272319936,,0.456266,1.144311,-3.390992,0.041545,0.042513,0.104299,-0.992768
1455208575.2848198,0,1455208575,284819935,,0.45436800000000005,1.146694,-3.3840269999999997,0.072738,0.043769999999999996,0.120816,-0.989038
1455208575.29732,0,1455208575,297319935,,0.45316000000000006,1.148342,-3.3797580000000003,0.07244199999999999,0.038206,0.127445,-0.988459
1455208575.30982,0,1455208575,309819936,,0.452292,1.149492,-3.3753279999999997,0.06955700000000001,0.039337000000000004,0.122204,-0.989283
1455208575.32232,0,1455208575,322319936,,0.45149399999999995,1.150672,-3.371254,0.062254,0.032171,0.11856099999999999,-0.9904709999999999
1455208575.33482,0,1455208575,334819936,,0.450111,1.151872,-3.366739,0.059630999999999997,0.048336000000000004,0.116502,-0.9902200000000001
1455208575.3473198,0,1455208575,347319935,,0.44804799999999995,1.152709,-3.362623,0.056754,0.046899,0.13479000000000002,-0.988135
1455208575.35982,0,1455208575,359819935,,0.44782,1.154971,-3.356704,0.068565,0.039809,0.125171,-0.9889620000000001
1455208575.37232,0,1455208575,372319936,,0.44619200000000003,1.155568,-3.352872,0.052570000000000006,0.047602,0.125419,-0.989566
1455208575.38482,0,1455208575,384819936,,0.444301,1.157499,-3.346961,0.067814,0.040501,0.148661,-0.9857290000000001
1455208575.39732,0,1455208575,397319936,,0.444295,1.1583729999999999,-3.342925,0.059741999999999996,0.033433,0.129602,-0.9892
1455208575.4098198,0,1455208575,409819935,,0.443381,1.1601860000000002,-3.337514,0.071202,0.039848,0.125743,-0.9887020000000001
1455208575.42232,0,1455208575,422319935,,0.44163800000000003,1.16054,-3.333567,0.057273000000000004,0.049118,0.130416,-0.988584
1455208575.43482,0,1455208575,434819936,,0.440553,1.161616,-3.328928,0.055357,0.05234,0.13037,-0.988534
1455208575.44732,0,1455208575,447319936,,0.44001599999999996,1.163045,-3.323371,0.062283000000000005,0.033693,0.128998,-0.9891129999999999
1455208575.45982,0,1455208575,459819936,,0.438629,1.16503,-3.3175589999999997,0.079025,0.036672,0.13608900000000002,-0.986859
1455208575.4723198,0,1455208575,472319935,,0.43700000000000006,1.1650989999999999,-3.3134949999999996,0.062325,0.048286,0.141663,-0.98677
1455208575.48482,0,1455208575,484819935,,0.43618500000000004,1.165909,-3.309132,0.056552,0.057147,0.135643,-0.98749
1455208575.49732,0,1455208575,497319936,,0.435434,1.166874,-3.302697,0.06832,0.040218000000000004,0.13383299999999998,-0.987828
1455208575.50982,0,1455208575,509819936,,0.434962,1.167951,-3.297439,0.07267,0.039764,0.127636,-0.9883559999999999
1455208575.52232,0,1455208575,522319936,,0.43421800000000005,1.168577,-3.2927089999999994,0.071357,0.033763,0.12413099999999999,-0.9891209999999999
1455208575.5348198,0,1455208575,534819935,,0.4323,1.168496,-3.288104,0.061083000000000005,0.047769,0.133947,-0.98795
1455208575.54732,0,1455208575,547319935,,0.431209,1.168842,-3.2833419999999998,0.057149,0.052395000000000004,0.13727899999999998,-0.9874940000000001
1455208575.55982,0,1455208575,559819936,,0.430371,1.169174,-3.278916,0.050301,0.060758000000000006,0.12983499999999998,-0.9883930000000001
1455208575.57232,0,1455208575,572319936,,0.429353,1.1697549999999999,-3.273282,0.056478999999999994,0.054548,0.13339700000000002,-0.9879469999999999
1455208575.58482,0,1455208575,584819936,,0.42921899999999996,1.171232,-3.2659279999999997,0.08127000000000001,0.044122,0.128754,-0.9873559999999999
1455208575.5973198,0,1455208575,597319935,,0.42866099999999996,1.171433,-3.261299,0.075461,0.037129,0.124645,-0.9886309999999999
1455208575.60982,0,1455208575,609819935,,0.42681499999999994,1.1709889999999998,-3.25652,0.062068,0.050006999999999996,0.13708599999999999,-0.987347
1455208575.62232,0,1455208575,622319936,,0.425762,1.170834,-3.2517419999999997,0.054648,0.054535,0.137431,-0.987498
1455208575.63482,0,1455208575,634819936,,0.424983,1.171482,-3.2450099999999997,0.07147,0.041395,0.14283900000000002,-0.986294
1455208575.64732,0,1455208575,647319936,,0.424608,1.171633,-3.239572,0.069371,0.041298,0.135568,-0.9874729999999999
1455208575.6598198,0,1455208575,659819935,,0.42424300000000004,1.172374,-3.234166,0.074922,0.040102,0.129626,-0.987915
1455208575.67232,0,1455208575,672319935,,0.42372,1.172642,-3.2289999999999996,0.076141,0.037939,0.12517999999999999,-0.9884799999999999
1455208575.68482,0,1455208575,684819936,,0.4228,1.1728020000000001,-3.2240889999999998,0.069885,0.050432,0.124778,-0.9884350000000001
1455208575.69732,0,1455208575,697319936,,0.42118999999999995,1.172374,-3.217858,0.071082,0.042418,0.142818,-0.986282
1455208575.70982,0,1455208575,709819936,,0.42036999999999997,1.1723940000000002,-3.2133979999999998,0.060136,0.051203,0.143285,-0.986525
1455208575.7223198,0,1455208575,722319935,,0.41984099999999996,1.172605,-3.208416,0.056587,0.057988,0.13872,-0.9870120000000001
1455208575.73482,0,1455208575,734819935,,0.42003599999999996,1.1729399999999999,-3.201778,0.068017,0.0366,0.12825599999999998,-0.9887290000000001
1455208575.74732,0,1455208575,747319936,,0.41966499999999995,1.173452,-3.195786,0.075784,0.03921,0.123358,-0.9886870000000001
1455208575.75982,0,1455208575,759819936,,0.417954,1.173341,-3.190116,0.071313,0.041760000000000005,0.143431,-0.9862040000000001
1455208575.77232,0,1455208575,772319936,,0.417372,1.173403,-3.1846,0.070535,0.041681,0.142319,-0.986424
1455208575.7848198,0,1455208575,784819935,,0.416634,1.173427,-3.17997,0.060699,0.052148,0.141506,-0.986698
1455208575.79732,0,1455208575,797319935,,0.416142,1.173718,-3.173301,0.072546,0.042717000000000005,0.143681,-0.986037
1455208575.80982,0,1455208575,809819936,,0.415626,1.173765,-3.167682,0.072417,0.042492,0.14282899999999998,-0.9861790000000001
1455208575.82232,0,1455208575,822319936,,0.415864,1.173991,-3.162475,0.071164,0.036427,0.131471,-0.9880909999999999
1455208575.83482,0,1455208575,834819936,,0.414675,1.1738899999999999,-3.1562740000000002,0.072666,0.042488,0.14300000000000002,-0.986137
1455208575.8473198,0,1455208575,847319935,,0.414525,1.173799,-3.150645,0.071719,0.041675,0.135535,-0.987294
1455208575.85982,0,1455208575,859819935,,0.413745,1.173656,-3.145787,0.06347699999999999,0.051598000000000005,0.137863,-0.987067
1455208575.87232,0,1455208575,872319936,,0.41318,1.173318,-3.140907,0.054153999999999994,0.060804,0.135957,-0.9873629999999999
1455208575.88482,0,1455208575,884819936,,0.412612,1.173168,-3.135089,0.057526999999999995,0.055963,0.135964,-0.987458
1455208575.89732,0,1455208575,897319936,,0.412749,1.173553,-3.127596,0.074542,0.041894,0.136353,-0.9869629999999999
1455208575.9098198,0,1455208575,909819935,,0.412754,1.1736739999999999,-3.122252,0.075386,0.036702,0.129975,-0.987966
1455208575.92232,0,1455208575,922319935,,0.412577,1.173941,-3.116103,0.081459,0.041212,0.124804,-0.987973
1455208575.93482,0,1455208575,934819936,,0.412174,1.1738110000000002,-3.11027,0.081742,0.041219,0.126888,-0.987683
1455208575.94732,0,1455208575,947319936,,0.41177700000000006,1.173427,-3.1052779999999998,0.074521,0.049576999999999996,0.125996,-0.987985
1455208575.95982,0,1455208575,959819936,,0.41040699999999997,1.17231,-3.1001369999999997,0.05976,0.059109,0.13805,-0.9868520000000001
1455208575.9723198,0,1455208575,972319935,,0.410545,1.172395,-3.092679,0.073693,0.042281,0.136381,-0.987007
1455208575.98482,0,1455208575,984819935,,0.409969,1.172216,-3.086761,0.07376,0.043711,0.139468,-0.9865079999999999
1455208575.99732,0,1455208575,997319936,,0.409624,1.172038,-3.080819,0.073518,0.044014,0.140452,-0.9863729999999999
1455208576.00982,0,1455208576,9819936,,0.409573,1.171813,-3.074891,0.071868,0.042192,0.13735899999999998,-0.987009
1455208576.02232,0,1455208576,22319936,,0.40925100000000003,1.171678,-3.068921,0.072137,0.042558,0.136904,-0.987037
1455208576.0348198,0,1455208576,34819935,,0.409446,1.1717110000000002,-3.063406,0.071785,0.038323,0.128579,-0.9883549999999999
1455208576.04732,0,1455208576,47319935,,0.408422,1.1714149999999999,-3.05694,0.072377,0.043533999999999996,0.14191700000000002,-0.9862690000000001
1455208576.05982,0,1455208576,59819936,,0.40817800000000004,1.171306,-3.050958,0.07203899999999999,0.043786,0.141629,-0.986324
1455208576.07232,0,1455208576,72319936,,0.407908,1.171106,-3.0449990000000002,0.073293,0.042647000000000004,0.14344200000000001,-0.9860190000000001
1455208576.08482,0,1455208576,84819936,,0.40772600000000003,1.171195,-3.038869,0.07119199999999999,0.043009,0.14148,-0.986441
1455208576.0973198,0,1455208576,97319935,,0.40728600000000004,1.171115,-3.0339720000000003,0.060110000000000004,0.054782000000000004,0.140268,-0.986768
1455208576.10982,0,1455208576,109819935,,0.407564,1.171025,-3.026856,0.072415,0.041552,0.13868,-0.9868120000000001
1455208576.12232,0,1455208576,122319936,,0.407057,1.1711989999999999,-3.0205740000000003,0.071338,0.043577,0.141574,-0.986392
1455208576.13482,0,1455208576,134819936,,0.40677199999999997,1.1712870000000002,-3.0145020000000002,0.071643,0.041858,0.14666099999999999,-0.985701
1455208576.14732,0,1455208576,147319936,,0.406658,1.171462,-3.008273,0.070904,0.043709,0.140966,-0.986504
1455208576.1598198,0,1455208576,159819935,,0.406464,1.171568,-3.002036,0.069939,0.042957,0.143334,-0.986265
1455208576.17232,0,1455208576,172319935,,0.40612,1.171608,-2.996952,0.058499,0.055475,0.141172,-0.9866969999999999
1455208576.18482,0,1455208576,184819936,,0.405944,1.171619,-2.991279,0.053157,0.05930800000000001,0.135442,-0.9875790000000001
1455208576.19732,0,1455208576,197319936,,0.405952,1.17228,-2.98322,0.071273,0.043746,0.141676,-0.986374
1455208576.20982,0,1455208576,209819936,,0.40567,1.1725450000000002,-2.9769080000000003,0.06883,0.042505,0.145207,-0.986089
1455208576.2223198,0,1455208576,222319935,,0.405604,1.1727020000000001,-2.970589,0.06982100000000001,0.043643,0.141591,-0.9864950000000001
1455208576.23482,0,1455208576,234819935,,0.405694,1.172875,-2.96442,0.065985,0.044224,0.134122,-0.987776
1455208576.24732,0,1455208576,247319936,,0.40522800000000003,1.173405,-2.957909,0.067498,0.043249,0.141982,-0.986618
1455208576.25982,0,1455208576,259819936,,0.405508,1.17405,-2.951515,0.069409,0.041321,0.138656,-0.987041
1455208576.27232,0,1455208576,272319936,,0.405096,1.174449,-2.944964,0.07245499999999999,0.044111000000000004,0.141408,-0.98631
1455208576.2848198,0,1455208576,284819935,,0.40492100000000003,1.174954,-2.938512,0.073032,0.045104000000000005,0.141941,-0.986146
1455208576.29732,0,1455208576,297319935,,0.40483800000000003,1.1754069999999999,-2.932086,0.07162,0.044675,0.141492,-0.986334
1455208576.30982,0,1455208576,309819936,,0.40473899999999996,1.17587,-2.925668,0.07052,0.044176,0.141766,-0.9863959999999999
1455208576.32232,0,1455208576,322319936,,0.404633,1.176369,-2.919193,0.070674,0.043838999999999996,0.143371,-0.986168
1455208576.33482,0,1455208576,334819936,,0.404525,1.1768129999999999,-2.913807,0.059313,0.057354999999999996,0.13916900000000001,-0.986825
1455208576.3473198,0,1455208576,347319935,,0.404781,1.177542,-2.906222,0.070285,0.042032,0.140224,-0.986727
1455208576.35982,0,1455208576,359819935,,0.404513,1.178125,-2.899474,0.071112,0.044293,0.141471,-0.986391
1455208576.37232,0,1455208576,372319936,,0.404428,1.178701,-2.892892,0.070625,0.044515,0.141155,-0.986461
1455208576.38482,0,1455208576,384819936,,0.40428000000000003,1.179211,-2.886293,0.070746,0.044377999999999994,0.14044,-0.986561
1455208576.39732,0,1455208576,397319936,,0.404181,1.179783,-2.879655,0.069726,0.043539999999999995,0.14332899999999998,-0.9862549999999999
1455208576.4098198,0,1455208576,409819935,,0.404505,1.180305,-2.873006,0.072573,0.043329,0.13562000000000002,-0.9871489999999999
1455208576.42232,0,1455208576,422319935,,0.404362,1.180914,-2.86633,0.071509,0.041957,0.139129,-0.9867969999999999
1455208576.43482,0,1455208576,434819936,,0.40429699999999996,1.181315,-2.859509,0.072391,0.044257,0.138196,-0.986764
1455208576.44732,0,1455208576,447319936,,0.403953,1.181411,-2.854093,0.060924,0.056960000000000004,0.14058199999999998,-0.98655
1455208576.45982,0,1455208576,459819936,,0.40433,1.182281,-2.846298,0.070788,0.042817,0.14018599999999998,-0.986663
1455208576.4723198,0,1455208576,472319935,,0.404026,1.1825700000000001,-2.840619,0.058766,0.056523000000000004,0.139985,-0.986791
1455208576.48482,0,1455208576,484819935,,0.403946,1.182742,-2.834478,0.05583200000000001,0.060885,0.133774,-0.987563
1455208576.49732,0,1455208576,497319936,,0.403869,1.183108,-2.827773,0.056945,0.0572,0.13120199999999999,-0.9880639999999999
1455208576.50982,0,1455208576,509819936,,0.40431500000000004,1.183713,-2.818998,0.071943,0.044251,0.139138,-0.986664
1455208576.52232,0,1455208576,522319936,,0.404436,1.184351,-2.812146,0.071515,0.044126,0.134679,-0.9873200000000001
1455208576.5348198,0,1455208576,534819935,,0.40452899999999997,1.1846709999999998,-2.805365,0.070124,0.043789999999999996,0.133392,-0.987609
1455208576.54732,0,1455208576,547319935,,0.404527,1.185239,-2.7984430000000002,0.072348,0.043926,0.13610899999999998,-0.987072
1455208576.55982,0,1455208576,559819936,,0.404591,1.1857090000000001,-2.791593,0.071155,0.044099,0.137579,-0.9869469999999999
1455208576.57232,0,1455208576,572319936,,0.404578,1.185993,-2.7847150000000003,0.071902,0.043798000000000004,0.13865999999999998,-0.9867549999999999
1455208576.58482,0,1455208576,584819936,,0.404387,1.186299,-2.777657,0.071701,0.044601,0.141767,-0.9862920000000001
1455208576.5973198,0,1455208576,597319935,,0.404406,1.186476,-2.7707189999999997,0.070462,0.044895,0.14069700000000002,-0.9865209999999999
1455208576.60982,0,1455208576,609819935,,0.404416,1.1868670000000001,-2.763697,0.07168,0.045681,0.140792,-0.986384
1455208576.62232,0,1455208576,622319936,,0.405296,1.188105,-2.756767,0.07863200000000001,0.042597,0.12828499999999998,-0.9876969999999999
1455208576.63482,0,1455208576,634819936,,0.40462800000000004,1.187439,-2.749718,0.070299,0.045058,0.140658,-0.9865309999999999
1455208576.64732,0,1455208576,647319936,,0.40476999999999996,1.187822,-2.742682,0.069222,0.044631,0.14164000000000002,-0.9864860000000001
1455208576.6598198,0,1455208576,659819935,,0.404812,1.1881760000000001,-2.735592,0.070244,0.044592,0.14233800000000002,-0.9863149999999999
1455208576.67232,0,1455208576,672319935,,0.40482399999999996,1.188387,-2.728488,0.069642,0.045027,0.141509,-0.9864569999999999
1455208576.68482,0,1455208576,684819936,,0.404861,1.1888940000000001,-2.721335,0.068941,0.044254,0.143619,-0.986237
1455208576.69732,0,1455208576,697319935,,0.40493,1.1894209999999998,-2.7141990000000003,0.06927,0.044219,0.142154,-0.986427
1455208576.70982,0,1455208576,709819936,,0.405474,1.189913,-2.7070939999999997,0.07016499999999999,0.043767,0.135909,-0.9872639999999999
1455208576.7223198,0,1455208576,722319935,,0.40531500000000004,1.190225,-2.701002,0.055524000000000004,0.059101,0.13579000000000002,-0.9874129999999999
1455208576.73482,0,1455208576,734819936,,0.40579299999999996,1.19145,-2.6926240000000004,0.072153,0.044697,0.135947,-0.987074
1455208576.74732,0,1455208576,747319936,,0.405844,1.191961,-2.68533,0.071134,0.044233,0.138246,-0.986849
1455208576.75982,0,1455208576,759819935,,0.405584,1.192388,-2.679206,0.055328999999999996,0.06014,0.138459,-0.986991
1455208576.77232,0,1455208576,772319936,,0.406449,1.194437,-2.671509,0.072975,0.051721,0.129928,-0.9874809999999999
1455208576.7848198,0,1455208576,784819935,,0.406049,1.194172,-2.66573,0.049867,0.06104299999999999,0.127851,-0.988656
1455208576.79732,0,1455208576,797319936,,0.406116,1.19545,-2.657838,0.052945000000000006,0.055232,0.131442,-0.988367
1455208576.80982,0,1455208576,809819936,,0.406358,1.197181,-2.648486,0.066933,0.043742,0.14264300000000002,-0.9865389999999999
1455208576.82232,0,1455208576,822319935,,0.406409,1.198402,-2.640964,0.066508,0.044186,0.143236,-0.9864620000000001
1455208576.83482,0,1455208576,834819936,,0.406677,1.199641,-2.633507,0.070431,0.045061000000000004,0.141165,-0.986449
1455208576.8473198,0,1455208576,847319935,,0.406815,1.200927,-2.6261229999999998,0.07230700000000001,0.044233,0.14307899999999998,-0.986075
1455208576.85982,0,1455208576,859819936,,0.406977,1.202273,-2.618687,0.07080700000000001,0.042954,0.14444300000000002,-0.986041
1455208576.87232,0,1455208576,872319936,,0.407163,1.203816,-2.611051,0.068539,0.043531,0.143368,-0.986333
1455208576.88482,0,1455208576,884819935,,0.407462,1.204967,-2.603615,0.072145,0.044083,0.14066199999999998,-0.986441
1455208576.89732,0,1455208576,897319936,,0.408495,1.207498,-2.596123,0.079079,0.042384,0.127903,-0.98772
1455208576.9098198,0,1455208576,909819935,,0.408061,1.208133,-2.588374,0.072861,0.044019,0.13916099999999998,-0.986604
1455208576.92232,0,1455208576,922319936,,0.408328,1.20957,-2.580936,0.071825,0.042889,0.13942100000000002,-0.986693
1455208576.93482,0,1455208576,934819936,,0.408376,1.210958,-2.573026,0.072111,0.044404,0.139745,-0.986559
1455208576.94732,0,1455208576,947319935,,0.408584,1.212642,-2.5654049999999997,0.072102,0.044871,0.138274,-0.9867459999999999
1455208576.95982,0,1455208576,959819936,,0.40885,1.214304,-2.557703,0.071215,0.044641,0.139099,-0.9867049999999999
1455208576.9723198,0,1455208576,972319935,,0.408973,1.216183,-2.5499080000000003,0.06977699999999999,0.043694,0.14313,-0.986274
1455208576.98482,0,1455208576,984819936,,0.409273,1.217958,-2.542185,0.069507,0.045204,0.140215,-0.986643
1455208576.99732,0,1455208576,997319936,,0.409455,1.219917,-2.534335,0.070355,0.045136,0.14052699999999999,-0.986542
1455208577.00982,0,1455208577,9819935,,0.40972700000000006,1.221999,-2.526454,0.070711,0.044349,0.14261400000000002,-0.986253
1455208577.02232,0,1455208577,22319936,,0.41003199999999995,1.224117,-2.518698,0.069021,0.044692,0.138549,-0.986936
1455208577.0348198,0,1455208577,34819935,,0.410262,1.226084,-2.510924,0.06499400000000001,0.04357,0.140764,-0.9869459999999999
1455208577.04732,0,1455208577,47319936,,0.41072200000000003,1.228212,-2.50296,0.069488,0.044018,0.139409,-0.9868129999999999
1455208577.05982,0,1455208577,59819936,,0.41114399999999995,1.2301360000000001,-2.495274,0.072599,0.042347,0.138714,-0.9867600000000001
1455208577.07232,0,1455208577,72319935,,0.411127,1.232069,-2.48737,0.071162,0.042378,0.14246099999999998,-0.9863290000000001
1455208577.08482,0,1455208577,84819936,,0.41147799999999995,1.234309,-2.479302,0.070292,0.042554,0.144093,-0.9861469999999999
1455208577.0973198,0,1455208577,97319935,,0.411803,1.23605,-2.471448,0.069953,0.0444,0.14013499999999998,-0.98666
1455208577.10982,0,1455208577,109819936,,0.412054,1.237659,-2.463603,0.073211,0.043515,0.142227,-0.9861629999999999
1455208577.12232,0,1455208577,122319936,,0.41233800000000004,1.239407,-2.455484,0.07379400000000001,0.044465,0.142429,-0.9860479999999999
1455208577.13482,0,1455208577,134819935,,0.412654,1.2410860000000001,-2.4477729999999998,0.07409400000000001,0.042973000000000004,0.14430199999999999,-0.98582
1455208577.14732,0,1455208577,147319936,,0.413023,1.24229,-2.439669,0.072394,0.044247,0.141287,-0.986326
1455208577.1598198,0,1455208577,159819935,,0.41331999999999997,1.243492,-2.431605,0.070675,0.044258,0.140934,-0.9865010000000001
1455208577.17232,0,1455208577,172319936,,0.413787,1.244561,-2.423748,0.073607,0.042897000000000005,0.14135799999999998,-0.9862860000000001
1455208577.18482,0,1455208577,184819936,,0.41414300000000004,1.245846,-2.415579,0.073269,0.043343,0.141457,-0.9862770000000001
1455208577.19732,0,1455208577,197319935,,0.414469,1.246787,-2.407495,0.072625,0.044515,0.140506,-0.986409
1455208577.20982,0,1455208577,209819936,,0.414828,1.24771,-2.39954,0.074762,0.043498,0.14002699999999998,-0.9863629999999999
1455208577.2223198,0,1455208577,222319935,,0.415163,1.248312,-2.3913759999999997,0.06889400000000001,0.044175,0.138888,-0.9869209999999999
1455208577.23482,0,1455208577,234819936,,0.415426,1.249124,-2.383168,0.071176,0.044305000000000004,0.141018,-0.986451
1455208577.24732,0,1455208577,247319936,,0.41610600000000003,1.250148,-2.375888,0.067628,0.037834,0.134649,-0.987859
1455208577.25982,0,1455208577,259819935,,0.41635500000000003,1.250245,-2.3668549999999997,0.070842,0.043826,0.141975,-0.986359
1455208577.27232,0,1455208577,272319936,,0.41703,1.2513610000000002,-2.359308,0.072068,0.039632,0.13089800000000001,-0.987978
1455208577.2848198,0,1455208577,284819935,,0.416976,1.251403,-2.350435,0.070203,0.044099,0.139739,-0.986712
1455208577.29732,0,1455208577,297319936,,0.417525,1.251758,-2.342299,0.067101,0.042406,0.140519,-0.986891
1455208577.30982,0,1455208577,309819936,,0.41826899999999995,1.252418,-2.334759,0.069007,0.038639,0.13303299999999998,-0.987951
1455208577.32232,0,1455208577,322319935,,0.41846700000000003,1.252227,-2.325748,0.06787699999999999,0.0439,0.139529,-0.9869129999999999
1455208577.33482,0,1455208577,334819936,,0.41884499999999997,1.252466,-2.3175630000000003,0.06891699999999999,0.041559,0.143056,-0.9864370000000001
1455208577.3473198,0,1455208577,347319935,,0.419346,1.252475,-2.3092029999999997,0.068891,0.041996,0.140764,-0.98675
1455208577.35982,0,1455208577,359819936,,0.419803,1.252753,-2.300796,0.06879299999999999,0.042814,0.13805,-0.9871049999999999
1455208577.37232,0,1455208577,372319936,,0.420177,1.252803,-2.292358,0.067639,0.042980000000000004,0.135936,-0.9874709999999999
1455208577.38482,0,1455208577,384819935,,0.420572,1.25273,-2.284021,0.066505,0.041774,0.138119,-0.987297
1455208577.39732,0,1455208577,397319936,,0.420943,1.252621,-2.275716,0.069202,0.042168000000000004,0.14233099999999999,-0.9864959999999999
1455208577.4098198,0,1455208577,409819935,,0.421112,1.252682,-2.267155,0.070244,0.042696,0.144714,-0.9860530000000001
1455208577.42232,0,1455208577,422319936,,0.42181499999999994,1.25271,-2.258787,0.066804,0.042459,0.139576,-0.987043
1455208577.43482,0,1455208577,434819936,,0.42234700000000003,1.252718,-2.250311,0.070287,0.041262,0.143126,-0.9863430000000001
1455208577.44732,0,1455208577,447319935,,0.42299,1.252321,-2.241834,0.069547,0.041315,0.140334,-0.9867940000000001
1455208577.45982,0,1455208577,459819936,,0.423397,1.252103,-2.2332349999999996,0.07032999999999999,0.040729,0.144331,-0.986186
1455208577.4723198,0,1455208577,472319935,,0.423829,1.252168,-2.224559,0.069538,0.041878,0.139796,-0.9868469999999999
1455208577.48482,0,1455208577,484819936,,0.42475,1.2524440000000001,-2.216447,0.072698,0.038235000000000005,0.132236,-0.987809
1455208577.49732,0,1455208577,497319936,,0.425196,1.252537,-2.207091,0.07792400000000001,0.044659,0.131652,-0.9872190000000001
1455208577.50982,0,1455208577,509819935,,0.42578299999999997,1.2523360000000001,-2.198458,0.08116799999999999,0.043948,0.13305699999999998,-0.986801
1455208577.52232,0,1455208577,522319936,,0.425555,1.2514,-2.189848,0.071663,0.041943,0.147784,-0.9855280000000001
1455208577.5348198,0,1455208577,534819935,,0.426854,1.251577,-2.181759,0.073813,0.038323,0.131995,-0.9877549999999999
1455208577.54732,0,1455208577,547319936,,0.427442,1.251554,-2.172332,0.07773,0.043726999999999995,0.131671,-0.987273
1455208577.55982,0,1455208577,559819936,,0.42823999999999995,1.251542,-2.164143,0.07875,0.037022,0.12954300000000002,-0.987748
1455208577.57232,0,1455208577,572319935,,0.42797299999999994,1.250415,-2.15516,0.070366,0.040324,0.143976,-0.986252
1455208577.58482,0,1455208577,584819936,,0.42862799999999995,1.2502790000000001,-2.146286,0.07433200000000001,0.041414,0.143269,-0.9860190000000001
1455208577.5973198,0,1455208577,597319935,,0.429076,1.24995,-2.137635,0.07054400000000001,0.039902,0.14688099999999998,-0.985828
1455208577.60982,0,1455208577,609819936,,0.42978500000000003,1.2497989999999999,-2.12869,0.073948,0.040222,0.145064,-0.985835
1455208577.62232,0,1455208577,622319936,,0.43049399999999993,1.249564,-2.119704,0.07435499999999999,0.040019,0.145063,-0.9858129999999999
1455208577.63482,0,1455208577,634819935,,0.43097299999999994,1.249584,-2.110793,0.072897,0.040751,0.145945,-0.9857610000000001
1455208577.64732,0,1455208577,647319936,,0.43182299999999996,1.2495120000000002,-2.104375,0.050095999999999995,0.048871,0.13684100000000002,-0.988118
1455208577.6598198,0,1455208577,659819935,,0.4323,1.24934,-2.092855,0.07141,0.040142000000000004,0.1516,-0.985042
1455208577.67232,0,1455208577,672319936,,0.432857,1.249341,-2.083799,0.068478,0.042243,0.1488,-0.9855889999999999
1455208577.68482,0,1455208577,684819936,,0.43395200000000006,1.249666,-2.074869,0.06936200000000001,0.040567,0.144593,-0.986223
1455208577.69732,0,1455208577,697319935,,0.435093,1.250402,-2.0665869999999997,0.07346699999999999,0.034532,0.139759,-0.9868520000000001
1455208577.70982,0,1455208577,709819936,,0.436279,1.251313,-2.056731,0.077432,0.037587,0.134211,-0.987208
1455208577.7223198,0,1455208577,722319935,,0.436341,1.250628,-2.047745,0.070786,0.03864,0.148869,-0.985563
1455208577.73482,0,1455208577,734819936,,0.43717700000000004,1.251218,-2.038678,0.070639,0.037652,0.152526,-0.985052
1455208577.74732,0,1455208577,747319936,,0.43814,1.2516129999999999,-2.029492,0.073534,0.038848,0.147703,-0.9855290000000001
1455208577.75982,0,1455208577,759819935,,0.43913800000000003,1.252492,-2.0203290000000003,0.07145900000000001,0.039191000000000004,0.145326,-0.9860209999999999
1455208577.77232,0,1455208577,772319936,,0.44000200000000006,1.253007,-2.011176,0.071327,0.040606,0.14675,-0.985763
1455208577.7848198,0,1455208577,784819935,,0.44086899999999996,1.253444,-2.002064,0.07375,0.037887,0.152633,-0.984799
1455208577.79732,0,1455208577,797319936,,0.44196599999999997,1.254022,-1.992934,0.073973,0.037512000000000004,0.149302,-0.9853069999999999
1455208577.80982,0,1455208577,809819936,,0.443258,1.254943,-1.984531,0.07131599999999999,0.032041,0.143759,-0.9865200000000001
1455208577.82232,0,1455208577,822319935,,0.444021,1.255473,-1.9744990000000002,0.074999,0.036854000000000005,0.149952,-0.9851559999999999
1455208577.83482,0,1455208577,834819936,,0.445334,1.256143,-1.965709,0.072184,0.034726,0.14518499999999998,-0.986157
1455208577.8473198,0,1455208577,847319935,,0.44614899999999996,1.256074,-1.956047,0.07285599999999999,0.038412,0.148765,-0.9854370000000001
1455208577.85982,0,1455208577,859819936,,0.447463,1.256787,-1.946635,0.077426,0.036883,0.149626,-0.985016
1455208577.87232,0,1455208577,872319936,,0.44889300000000004,1.257841,-1.93777,0.083388,0.034906,0.143414,-0.985525
1455208577.88482,0,1455208577,884819935,,0.44967700000000005,1.2572139999999998,-1.9280700000000002,0.071502,0.04102,0.147387,-0.9856379999999999
1455208577.89732,0,1455208577,897319936,,0.450955,1.25725,-1.918922,0.071741,0.038106,0.150824,-0.985217
1455208577.9098198,0,1455208577,909819935,,0.452323,1.257451,-1.9094900000000001,0.076869,0.037370999999999995,0.152024,-0.9846739999999999
1455208577.92232,0,1455208577,922319936,,0.45392299999999997,1.2579639999999999,-1.900839,0.076378,0.033748,0.141343,-0.986433
1455208577.93482,0,1455208577,934819936,,0.455726,1.258169,-1.8907450000000001,0.076826,0.034851,0.131892,-0.987668
1455208577.94732,0,1455208577,947319935,,0.457009,1.25843,-1.8813669999999998,0.08173,0.037984,0.13458499999999998,-0.9867950000000001
1455208577.95982,0,1455208577,959819936,,0.457625,1.25706,-1.8721130000000001,0.072524,0.036331999999999996,0.14970799999999998,-0.985397
1455208577.9723198,0,1455208577,972319935,,0.459478,1.257593,-1.8632,0.076661,0.032415,0.138677,-0.986834
1455208577.98482,0,1455208577,984819936,,0.461204,1.257557,-1.853172,0.082064,0.035473000000000005,0.138374,-0.9863370000000001
1455208577.99732,0,1455208577,997319936,,0.46218100000000006,1.256523,-1.843664,0.069899,0.036601,0.145644,-0.986186
1455208578.00982,0,1455208578,9819935,,0.463621,1.255932,-1.8342740000000002,0.071976,0.037418,0.14520999999999998,-0.9860700000000001
1455208578.02232,0,1455208578,22319936,,0.46493999999999996,1.255883,-1.82496,0.074864,0.037558999999999995,0.149622,-0.985189
1455208578.0348198,0,1455208578,34819935,,0.466684,1.2551370000000002,-1.8154290000000002,0.07349,0.035904000000000005,0.145036,-0.9860399999999999
1455208578.04732,0,1455208578,47319936,,0.46819799999999995,1.254533,-1.8058020000000001,0.072042,0.035857,0.14563900000000002,-0.98606
1455208578.05982,0,1455208578,59819936,,0.469642,1.2542440000000001,-1.796286,0.072181,0.036855,0.14538900000000002,-0.98605
1455208578.07232,0,1455208578,72319935,,0.47124399999999994,1.253434,-1.786732,0.070319,0.035758,0.144698,-0.986326
1455208578.08482,0,1455208578,84819936,,0.47311499999999995,1.253696,-1.777595,0.076342,0.033611,0.137432,-0.986993
1455208578.0973198,0,1455208578,97319935,,0.474078,1.252808,-1.767418,0.07132999999999999,0.035939,0.149426,-0.985542
1455208578.10982,0,1455208578,109819936,,0.476292,1.253191,-1.7583419999999998,0.07309299999999999,0.033707,0.135113,-0.987556
1455208578.12232,0,1455208578,122319936,,0.47814300000000004,1.253148,-1.7480639999999998,0.07385800000000001,0.034957999999999996,0.13566,-0.9873799999999999
1455208578.13482,0,1455208578,134819935,,0.480828,1.251562,-1.739707,0.051239,0.029704,0.112474,-0.9918879999999999
1455208578.14732,0,1455208578,147319936,,0.48152399999999995,1.252967,-1.7286580000000002,0.076348,0.033891000000000004,0.13037,-0.9879399999999999
1455208578.1598198,0,1455208578,159819935,,0.483092,1.252985,-1.718922,0.075955,0.035094,0.131981,-0.987715
1455208578.17232,0,1455208578,172319936,,0.483994,1.252317,-1.709316,0.06908500000000001,0.0371,0.14478,-0.986352
1455208578.18482,0,1455208578,184819936,,0.48576099999999994,1.25235,-1.6996310000000001,0.069727,0.035606,0.14501,-0.9863280000000001
1455208578.19732,0,1455208578,197319935,,0.48794899999999997,1.252586,-1.69039,0.067979,0.029516000000000004,0.12987200000000002,-0.988757
1455208578.20982,0,1455208578,209819936,,0.4892,1.252363,-1.6797060000000001,0.071075,0.034535,0.141249,-0.986815
1455208578.2223198,0,1455208578,222319935,,0.491036,1.253248,-1.6704900000000003,0.06517,0.03069,0.134402,-0.9883049999999999
1455208578.23482,0,1455208578,234819936,,0.492381,1.253232,-1.659963,0.068093,0.033731,0.142456,-0.98688
1455208578.24732,0,1455208578,247319936,,0.49444099999999996,1.254027,-1.6505990000000001,0.072103,0.029508999999999997,0.135905,-0.987654
1455208578.25982,0,1455208578,259819935,,0.49626400000000004,1.255414,-1.640075,0.08055,0.035414,0.139139,-0.9863559999999999
1455208578.27232,0,1455208578,272319936,,0.497762,1.255024,-1.630034,0.069165,0.031089999999999996,0.14261300000000002,-0.986869
1455208578.2848198,0,1455208578,284819935,,0.49981400000000004,1.256226,-1.620826,0.06914400000000001,0.027286,0.132519,-0.988389
1455208578.29732,0,1455208578,297319936,,0.501691,1.257558,-1.609866,0.081198,0.03611,0.132548,-0.9871850000000001
1455208578.30982,0,1455208578,309819936,,0.502704,1.257525,-1.599739,0.07368,0.033823,0.144022,-0.9862479999999999
1455208578.32232,0,1455208578,322319935,,0.504502,1.258517,-1.589499,0.07022300000000001,0.036197,0.136518,-0.987482
1455208578.33482,0,1455208578,334819936,,0.507646,1.2586600000000001,-1.581279,0.045283,0.027294,0.107769,-0.992769
1455208578.3473198,0,1455208578,347319935,,0.5087,1.2613889999999999,-1.56932,0.080303,0.034176,0.12647,-0.988124
1455208578.35982,0,1455208578,359819936,,0.509748,1.261696,-1.559149,0.070875,0.032527,0.138718,-0.9872569999999999
1455208578.37232,0,1455208578,372319936,,0.51168,1.263552,-1.548927,0.07436799999999999,0.0346,0.137311,-0.9871260000000001
1455208578.38482,0,1455208578,384819935,,0.51353,1.2647,-1.539296,0.07435399999999999,0.031842,0.126451,-0.98867
1455208578.39732,0,1455208578,397319936,,0.515318,1.2665389999999999,-1.528283,0.084273,0.033579000000000005,0.128815,-0.987511
1455208578.4098198,0,1455208578,409819935,,0.516429,1.266657,-1.517929,0.068423,0.036114,0.132819,-0.988116
1455208578.42232,0,1455208578,422319936,,0.517975,1.268799,-1.507873,0.075657,0.035287,0.146781,-0.98564
1455208578.43482,0,1455208578,434819936,,0.5202399999999999,1.2705229999999998,-1.497976,0.071301,0.027892,0.133495,-0.988088
1455208578.44732,0,1455208578,447319935,,0.52155,1.272068,-1.4871,0.07486799999999999,0.032743,0.145589,-0.985965
1455208578.45982,0,1455208578,459819936,,0.523324,1.273601,-1.476402,0.077277,0.034054,0.138996,-0.9866860000000001
1455208578.4723198,0,1455208578,472319935,,0.526536,1.274326,-1.467627,0.049628,0.026517000000000002,0.10553599999999999,-0.992822
1455208578.48482,0,1455208578,484819936,,0.527036,1.2779479999999999,-1.455511,0.084053,0.031157,0.131349,-0.987275
1455208578.49732,0,1455208578,497319936,,0.528325,1.279166,-1.4453049999999998,0.076218,0.033802,0.143239,-0.9861700000000001
1455208578.50982,0,1455208578,509819935,,0.5303760000000001,1.281592,-1.434606,0.07725900000000001,0.033561,0.139427,-0.986643
1455208578.52232,0,1455208578,522319936,,0.531532,1.282633,-1.424084,0.070868,0.035085000000000005,0.13959100000000002,-0.9870469999999999
1455208578.5348198,0,1455208578,534819935,,0.533122,1.2848959999999998,-1.413347,0.075761,0.031277,0.14541700000000002,-0.9859700000000001
1455208578.54732,0,1455208578,547319936,,0.535111,1.2874809999999999,-1.4029399999999999,0.076145,0.031593,0.13903,-0.986851
1455208578.55982,0,1455208578,559819936,,0.536621,1.289865,-1.392694,0.07719,0.031451,0.142958,-0.9862129999999999
1455208578.57232,0,1455208578,572319935,,0.538678,1.292192,-1.382123,0.080203,0.0322,0.139086,-0.986502
1455208578.58482,0,1455208578,584819936,,0.53978,1.293433,-1.371055,0.072037,0.031833,0.138684,-0.9872
1455208578.5973198,0,1455208578,597319935,,0.542454,1.295095,-1.362156,0.051997,0.023987,0.11681199999999999,-0.991502
1455208578.60982,0,1455208578,609819936,,0.543155,1.2977100000000001,-1.349827,0.075449,0.030507,0.145957,-0.9859379999999999
1455208578.62232,0,1455208578,622319936,,0.545078,1.2999290000000001,-1.339229,0.075436,0.030610000000000002,0.133571,-0.98769
1455208578.63482,0,1455208578,634819935,,0.546721,1.302697,-1.328953,0.07896,0.031152999999999997,0.140528,-0.986431
1455208578.64732,0,1455208578,647319936,,0.548365,1.304419,-1.318646,0.069247,0.023743,0.130447,-0.988749
1455208578.6598198,0,1455208578,659819935,,0.549642,1.306762,-1.307107,0.074814,0.029870999999999998,0.14239100000000002,-0.986527
1455208578.67232,0,1455208578,672319936,,0.552138,1.3088090000000001,-1.298082,0.054426,0.022516,0.11649300000000001,-0.9914440000000001
1455208578.68482,0,1455208578,684819936,,0.553185,1.312254,-1.2871,0.072385,0.024908,0.12925,-0.9886530000000001
1455208578.69732,0,1455208578,697319935,,0.554794,1.315513,-1.275056,0.080724,0.030639,0.139131,-0.986503
1455208578.70982,0,1455208578,709819936,,0.55599,1.318376,-1.264314,0.077932,0.03185,0.141125,-0.986405
1455208578.7223198,0,1455208578,722319935,,0.557469,1.321382,-1.253282,0.07386000000000001,0.030355,0.137388,-0.987293
1455208578.73482,0,1455208578,734819936,,0.558873,1.324782,-1.242393,0.076714,0.03,0.137203,-0.9871120000000001
1455208578.74732,0,1455208578,747319936,,0.560423,1.328543,-1.231851,0.078037,0.028946,0.143648,-0.986123
1455208578.75982,0,1455208578,759819935,,0.562001,1.33165,-1.2205139999999999,0.071866,0.028068,0.13408499999999998,-0.9879620000000001
1455208578.77232,0,1455208578,772319936,,0.564423,1.334991,-1.211597,0.050816,0.01898,0.114727,-0.991915
1455208578.7848198,0,1455208578,784819935,,0.564901,1.339653,-1.199064,0.075248,0.029419,0.137739,-0.987168
1455208578.79732,0,1455208578,797319936,,0.566242,1.343789,-1.18842,0.07923999999999999,0.027699,0.14636300000000002,-0.985663
1455208578.80982,0,1455208578,809819936,,0.568026,1.347596,-1.177698,0.082179,0.028600999999999998,0.139752,-0.9863559999999999
1455208578.82232,0,1455208578,822319935,,0.5693520000000001,1.350862,-1.166463,0.074331,0.028316,0.134445,-0.9877229999999999
1455208578.83482,0,1455208578,834819936,,0.571701,1.354423,-1.15755,0.053319000000000005,0.017735,0.114021,-0.9918879999999999
1455208578.8473198,0,1455208578,847319935,,0.572179,1.359129,-1.1451129999999998,0.08062899999999999,0.029113999999999998,0.13401300000000002,-0.987265
1455208578.85982,0,1455208578,859819936,,0.573803,1.363728,-1.134443,0.084516,0.026293,0.13713599999999998,-0.98659
1455208578.87232,0,1455208578,872319936,,0.574832,1.367412,-1.123289,0.083955,0.026889999999999997,0.138051,-0.9864940000000001
1455208578.88482,0,1455208578,884819935,,0.576386,1.3716030000000001,-1.112501,0.081697,0.028725,0.130642,-0.98764
1455208578.89732,0,1455208578,897319936,,0.577581,1.375045,-1.1015270000000001,0.078057,0.027305,0.130295,-0.9880209999999999
1455208578.9098198,0,1455208578,909819935,,0.578972,1.379946,-1.0908129999999998,0.087805,0.027027,0.137981,-0.986165
1455208578.92232,0,1455208578,922319936,,0.5801970000000001,1.384012,-1.079862,0.086238,0.027089,0.132712,-0.987024
1455208578.93482,0,1455208578,934819936,,0.581918,1.3872959999999999,-1.069549,0.070492,0.027025,0.11603499999999999,-0.9903719999999999
1455208578.94732,0,1455208578,947319935,,0.582654,1.392283,-1.0583069999999999,0.086765,0.025485,0.135958,-0.9865790000000001
1455208578.95982,0,1455208578,959819936,,0.5839300000000001,1.396151,-1.04739,0.082197,0.022532,0.130801,-0.9877379999999999
1455208578.9723198,0,1455208578,972319935,,0.584987,1.400407,-1.036646,0.085671,0.025796,0.13380899999999998,-0.9869600000000001
1455208578.98482,0,1455208578,984819936,,0.58628,1.404295,-1.025758,0.080525,0.025963,0.126746,-0.9883200000000001
1455208578.99732,0,1455208578,997319936,,0.587404,1.4084379999999999,-1.0151270000000001,0.08139600000000001,0.025668,0.12493199999999999,-0.9884879999999999
1455208579.00982,0,1455208579,9819935,,0.588377,1.412726,-1.0044389999999999,0.086203,0.024671000000000002,0.135215,-0.986751
1455208579.02232,0,1455208579,22319936,,0.5898329999999999,1.4172040000000001,-0.994067,0.093057,0.025822,0.13538699999999998,-0.986075
1455208579.0348198,0,1455208579,34819935,,0.590512,1.420366,-0.984733,0.07574600000000001,0.036601999999999996,0.123695,-0.988748
1455208579.04732,0,1455208579,47319936,,0.5916859999999999,1.424352,-0.9725790000000001,0.08376,0.024144,0.12845399999999998,-0.987877
1455208579.05982,0,1455208579,59819936,,0.5929399999999999,1.4283700000000001,-0.9618270000000001,0.087409,0.025979000000000002,0.12226400000000001,-0.9883
1455208579.07232,0,1455208579,72319935,,0.593651,1.4317030000000002,-0.951262,0.083939,0.026423000000000002,0.12578499999999998,-0.9881469999999999
1455208579.08482,0,1455208579,84819936,,0.595627,1.4349319999999999,-0.9423459999999999,0.065755,0.013909,0.11015599999999999,-0.9916389999999999
1455208579.0973198,0,1455208579,97319935,,0.595542,1.438987,-0.9300719999999999,0.08434900000000001,0.027198000000000003,0.125912,-0.988075
1455208579.10982,0,1455208579,109819936,,0.596854,1.442947,-0.9208129999999999,0.07535900000000001,0.012758,0.120398,-0.9897790000000001
1455208579.12232,0,1455208579,122319936,,0.597508,1.446963,-0.909149,0.087159,0.025462000000000002,0.124424,-0.988066
1455208579.13482,0,1455208579,134819935,,0.599479,1.450073,-0.900209,0.067315,0.013561000000000002,0.106021,-0.9919899999999999
1455208579.14732,0,1455208579,147319936,,0.599283,1.454925,-0.888209,0.09425800000000001,0.022882,0.128377,-0.9869709999999999
1455208579.1598198,0,1455208579,159819935,,0.599919,1.45822,-0.877785,0.09097100000000001,0.023909,0.129547,-0.987102
1455208579.17232,0,1455208579,172319936,,0.6006630000000001,1.4620600000000001,-0.867426,0.092137,0.022422,0.132237,-0.9866719999999999
1455208579.18482,0,1455208579,184819936,,0.602029,1.465422,-0.8573290000000001,0.082927,0.024794999999999998,0.11348499999999999,-0.989762
1455208579.19732,0,1455208579,197319935,,0.602111,1.469249,-0.8466049999999999,0.092203,0.022885,0.133873,-0.9864350000000001
1455208579.20982,0,1455208579,209819936,,0.60295,1.472208,-0.8361700000000001,0.084871,0.024863999999999997,0.124096,-0.9883209999999999
1455208579.2223198,0,1455208579,222319935,,0.603491,1.476189,-0.825893,0.084812,0.022991,0.126595,-0.9880549999999999
1455208579.23482,0,1455208579,234819936,,0.604372,1.4797870000000002,-0.8156979999999999,0.088898,0.023291,0.126094,-0.9877530000000001
1455208579.24732,0,1455208579,247319936,,0.605007,1.483708,-0.805654,0.091785,0.023275999999999998,0.131021,-0.9868469999999999
1455208579.25982,0,1455208579,259819935,,0.605466,1.4866979999999999,-0.7952239999999999,0.087427,0.02284,0.12921,-0.987492
1455208579.27232,0,1455208579,272319936,,0.606328,1.490638,-0.786255,0.085359,0.014274,0.12998099999999999,-0.9877319999999999
1455208579.2848198,0,1455208579,284819935,,0.606746,1.493787,-0.7749590000000001,0.087938,0.021906000000000002,0.127855,-0.9876440000000001
1455208579.29732,0,1455208579,297319936,,0.607313,1.498014,-0.765051,0.09603400000000001,0.020101,0.135126,-0.985959
1455208579.30982,0,1455208579,309819936,,0.60849,1.500977,-0.7555189999999999,0.088238,0.023731,0.11566400000000002,-0.9890770000000001
1455208579.32232,0,1455208579,322319935,,0.608485,1.5043600000000001,-0.7449279999999999,0.091423,0.023287000000000002,0.124295,-0.98775
1455208579.33482,0,1455208579,334819936,,0.610089,1.507354,-0.736474,0.075889,0.010498,0.10938599999999998,-0.991043
1455208579.3473198,0,1455208579,347319935,,0.6092609999999999,1.510648,-0.725023,0.088946,0.025389,0.126754,-0.987612
1455208579.35982,0,1455208579,359819936,,0.6094890000000001,1.513634,-0.71637,0.078799,0.038127,0.11873900000000001,-0.989059
1455208579.37232,0,1455208579,372319936,,0.610179,1.518117,-0.7053550000000001,0.098889,0.020416,0.136114,-0.985534
1455208579.38482,0,1455208579,384819935,,0.6105,1.521017,-0.695525,0.09656,0.023065000000000002,0.133903,-0.986009
1455208579.39732,0,1455208579,397319936,,0.610907,1.523728,-0.68562,0.090835,0.022837,0.126822,-0.9874940000000001
1455208579.4098198,0,1455208579,409819935,,0.6116560000000001,1.526887,-0.676974,0.086172,0.01277,0.12178800000000001,-0.988726
1455208579.42232,0,1455208579,422319936,,0.611736,1.530033,-0.666237,0.09310299999999999,0.022515,0.12503399999999998,-0.987518
1455208579.43482,0,1455208579,434819936,,0.611971,1.533092,-0.656439,0.090862,0.0219,0.128548,-0.987289
1455208579.44732,0,1455208579,447319935,,0.612354,1.5362120000000001,-0.646749,0.09325599999999999,0.020766,0.130113,-0.986885
